Timestamp,targetPose/rotation/q/w,targetPose/rotation/q/x,targetPose/rotation/q/y,targetPose/rotation/q/z,targetPose/translation/x,targetPose/translation/y,targetPose/translation/z,AprilTag roll,AprilTag pitch,AprilTag yaw,Tracker_1/rotation/value,Tracker_1/translation/x,Tracker_1/translation/y,Tracker_2/rotation/value,Tracker_2/translation/x,Tracker_2/translation/y,Tracker_3/rotation/value,Tracker_3/translation/x,Tracker_3/translation/y,camera tag range,tag angle [degrees],tracker range,tracker angle [degrees],range error,angle error [degrees]
57.466263,0.043008624,-0.008106173,-0.001842651,-0.999040116,2.236384641,0.013473349,0.20357355,89.82897793,-0.937130574,-94.92871772,-0.031015873,4.359231067,3.845891474,-0.028946162,2.154098969,3.913318552,0.034012636,4.885052086,3.272124218,2.236425226,0.345180656,2.206162728,-1.751406934,0.030262499,-2.096587591
57.486263,0.024923571,-0.019584611,-0.000861335,-0.999497132,2.237327755,0.013543502,0.20378633,89.9572493,-2.246137806,-92.85603769,-0.031015873,4.359231067,3.845891474,-0.028946162,2.154098969,3.913318552,0.034012636,4.885052086,3.272124218,2.237368746,0.34683163,2.206162728,-1.751406934,0.031206019,-2.098238565
57.506263,-0.004334009,0.01855189,0.000665343,-0.999818284,2.243513419,0.013660702,0.204291351,90.08550132,2.125660877,-89.50168573,-0.031015873,4.359231067,3.845891474,-0.028946162,2.154098969,3.913318552,0.034012636,4.885052086,3.272124218,2.243555008,0.348868384,2.206162728,-1.751406934,0.03739228,-2.100275318
57.526263,0.030566015,-0.002729593,-0.000364021,-0.999528957,2.244928202,0.013733926,0.204431728,89.96786617,-0.313917524,-93.50307818,-0.031015873,4.359231067,3.845891474,-0.028946162,2.154098969,3.913318552,0.034012636,4.885052086,3.272124218,2.244970212,0.350517303,2.206162728,-1.751406934,0.038807484,-2.101924237
57.546263,0.030566015,-0.002729593,-0.000364021,-0.999528957,2.244928202,0.013733926,0.204431728,89.96786617,-0.313917524,-93.50307818,-0.031015873,4.359231067,3.845891474,-0.028946162,2.154098969,3.913318552,0.034012636,4.885052086,3.272124218,2.244970212,0.350517303,2.206162728,-1.751406934,0.038807484,-2.101924237
57.566263,0.047912872,-0.038329661,-0.002467617,-0.998112771,2.227530819,0.013274101,0.203041329,89.9279988,-4.401843606,-95.49380544,-0.031015873,4.359231067,3.845891474,-0.028946162,2.154098969,3.913318552,0.034012636,4.885052086,3.272124218,2.227570369,0.341427817,2.206162728,-1.751406934,0.021407642,-2.092834751
57.586263,0.027637786,-0.025497064,-0.000752631,-0.999292493,2.235775799,0.013487197,0.203714544,89.99455942,-2.923332978,-93.16835268,-0.031091398,4.359428153,3.846017172,-0.029196937,2.154308986,3.913477102,0.033987448,4.88496045,3.272258517,2.235816479,0.345629513,2.206150806,-1.752270004,0.029665673,-2.097899516
57.606263,0.027637786,-0.025497064,-0.000752631,-0.999292493,2.235775799,0.013487197,0.203714544,89.99455942,-2.923332978,-93.16835268,-0.031091398,4.359428153,3.846017172,-0.029196937,2.154308986,3.913477102,0.033987448,4.88496045,3.272258517,2.235816479,0.345629513,2.206150806,-1.752270004,0.029665673,-2.097899516
57.626263,0.031577515,-0.038012241,-0.001228101,-0.998777464,2.231754227,0.01342077,0.203473673,89.9969812,-4.359204984,-93.62162459,-0.031091398,4.359428153,3.846017172,-0.029196937,2.154308986,3.913477102,0.033987448,4.88496045,3.272258517,2.23179458,0.344546981,2.206150806,-1.752270004,0.025643773,-2.096816985
57.646263,0.031577515,-0.038012241,-0.001228101,-0.998777464,2.231754227,0.01342077,0.203473673,89.9969812,-4.359204984,-93.62162459,-0.031091398,4.359428153,3.846017172,-0.029196937,2.154308986,3.913477102,0.033987448,4.88496045,3.272258517,2.23179458,0.344546981,2.206150806,-1.752270004,0.025643773,-2.096816985
57.666263,0.021968227,-0.007832654,-0.000303982,-0.99972794,2.240825827,0.013644509,0.204117458,89.98489151,-0.898113809,-92.51753485,-0.031091398,4.359428153,3.846017172,-0.029196937,2.154308986,3.913477102,0.033987448,4.88496045,3.272258517,2.240867367,0.348872763,2.206150806,-1.752270004,0.034716561,-2.101142766
57.686263,0.037428081,0.008664806,-0.001028915,-0.999261228,2.246345104,0.013748397,0.20452424,89.84499605,0.987816117,-94.2914438,-0.031216185,4.359582837,3.846276684,-0.029185907,2.154300966,3.913314839,0.033939952,4.885197042,3.27301579,2.246387176,0.350665302,2.206300579,-1.741192776,0.040086597,-2.091858078
57.706263,0.029442744,-0.015759067,-0.000985778,-0.999441747,2.238042847,0.013500318,0.203838398,89.94024078,-1.808474139,-93.37385528,-0.031216185,4.359582837,3.846276684,-0.029185907,2.154300966,3.913314839,0.033939952,4.885197042,3.27301579,2.238083565,0.345615301,2.206300579,-1.741192776,0.031782986,-2.086808077
57.726263,0.030180753,-0.021164212,-0.000938516,-0.999319927,2.237605122,0.013438101,0.203930366,89.96569195,-2.427562749,-93.45903455,-0.031216185,4.359582837,3.846276684,-0.029185907,2.154300966,3.913314839,0.033939952,4.885197042,3.27301579,2.237645473,0.344089864,2.206300579,-1.741192776,0.031344894,-2.08528264
57.746263,0.014987314,-0.01714736,0.000306061,-0.999740594,2.239281066,0.013600012,0.203956684,90.06455011,-1.964292181,-91.71884329,-0.031216185,4.359582837,3.846276684,-0.029185907,2.154300966,3.913314839,0.033939952,4.885197042,3.27301579,2.239322364,0.347974954,2.206300579,-1.741192776,0.033021786,-2.089167731
57.766263,0.047414315,-0.037078411,-0.002208171,-0.998184451,2.22900822,0.013291523,0.203199046,89.94873763,-4.257072292,-95.43716902,-0.031216185,4.359582837,3.846276684,-0.029185907,2.154300966,3.913314839,0.033939952,4.885197042,3.27301579,2.229047848,0.341649329,2.206300579,-1.741192776,0.022747269,-2.082842105
57.786263,0.047414315,-0.037078411,-0.002208171,-0.998184451,2.22900822,0.013291523,0.203199046,89.94873763,-4.257072292,-95.43716902,-0.031074945,4.359450452,3.846138038,-0.029175875,2.154397779,3.913548366,0.033870872,4.88502242,3.272760118,2.229047848,0.341649329,2.206082828,-1.751035178,0.02296502,-2.092684507
57.806263,0.007271209,0.041509307,0.000723725,-0.999111397,2.247044823,0.01363699,0.204468741,90.04843975,4.758460777,-90.83193289,-0.031074945,4.359450452,3.846138038,-0.029175875,2.154397779,3.913548366,0.033870872,4.88502242,3.272760118,2.247086203,0.347715534,2.206082828,-1.751035178,0.041003375,-2.098750712
57.826263,0.021577635,-0.039068961,-0.000641721,-0.999003308,2.232243807,0.013452933,0.203561938,90.02321086,-4.47865722,-92.47560454,-0.031074945,4.359450452,3.846138038,-0.029175875,2.154397779,3.913548366,0.033870872,4.88502242,3.272760118,2.232284344,0.34529693,2.206082828,-1.751035178,0.026201517,-2.096332108
57.846263,0.013737895,-0.020421729,0.000162172,-0.999697053,2.239470983,0.013580077,0.204108248,90.05076908,-2.339843818,-91.57566153,-0.031074945,4.359450452,3.846138038,-0.029175875,2.154397779,3.913548366,0.033870872,4.88502242,3.272760118,2.239512157,0.347435418,2.206082828,-1.751035178,0.03342933,-2.098470596
57.866263,-0.000749117,-0.037402816,0.000603307,-0.999299807,2.232224354,0.013569211,0.203575545,90.06605953,-4.287096881,-89.91656998,-0.031074945,4.359450452,3.846138038,-0.029175875,2.154397779,3.913548366,0.033870872,4.88502242,3.272760118,2.232265595,0.348284412,2.206082828,-1.751035178,0.026182768,-2.09931959
57.886263,-0.000749117,-0.037402816,0.000603307,-0.999299807,2.232224354,0.013569211,0.203575545,90.06605953,-4.287096881,-89.91656998,-0.031074945,4.359450452,3.846138038,-0.029175875,2.154397779,3.913548366,0.033870872,4.88502242,3.272760118,2.232265595,0.348284412,2.206082828,-1.751035178,0.026182768,-2.09931959
57.906263,0.031323055,-0.027209718,-0.001587977,-0.999137616,2.233721481,0.013470743,0.203572404,89.91572841,-3.122560362,-93.58898266,-0.031066529,4.359525745,3.846212744,-0.02919796,2.15441537,3.913140043,0.033725383,4.885209575,3.272375581,2.2337621,0.345525335,2.206125796,-1.738450366,0.027636304,-2.083975701
57.926263,0.023634822,-0.020696356,-0.000379284,-0.999506334,2.237500184,0.013520982,0.203833654,90.01262247,-2.372161745,-92.70944521,-0.031066529,4.359525745,3.846212744,-0.02919796,2.15441537,3.913140043,0.033725383,4.885209575,3.272375581,2.237541037,0.346228256,2.206125796,-1.738450366,0.031415241,-2.084678622
57.946263,0.023634822,-0.020696356,-0.000379284,-0.999506334,2.237500184,0.013520982,0.203833654,90.01262247,-2.372161745,-92.70944521,-0.031066529,4.359525745,3.846212744,-0.02919796,2.15441537,3.913140043,0.033725383,4.885209575,3.272375581,2.237541037,0.346228256,2.206125796,-1.738450366,0.031415241,-2.084678622
57.966263,0.037647008,-0.025219186,-0.001393638,-0.998971848,2.234034962,0.013398811,0.203529674,89.9491965,-2.894177359,-94.31514332,-0.031066529,4.359525745,3.846212744,-0.02919796,2.15441537,3.913140043,0.033725383,4.885209575,3.272375581,2.234075142,0.3436321,2.206125796,-1.738450366,0.027949346,-2.082082466
57.986263,0.020754237,-0.012203109,-6.10233E-05,-0.999710129,2.239795606,0.01365781,0.204086258,90.022038,-1.398251896,-92.37887716,-0.031066529,4.359525745,3.846212744,-0.02919796,2.15441537,3.913140043,0.033725383,4.885209575,3.272375581,2.239837247,0.349373463,2.206125796,-1.738450366,0.033711451,-2.087823829
58.006263,0.020526952,-0.015461133,-0.000387432,-0.999669669,2.239226171,0.013595126,0.204022907,89.99198231,-1.772324046,-92.3525381,-0.031066529,4.359525745,3.846212744,-0.02919796,2.15441537,3.913140043,0.033725383,4.885209575,3.272375581,2.239267441,0.347858462,2.206125796,-1.738450366,0.033141645,-2.086308828
58.026263,0.026614116,-0.018772699,-0.00089439,-0.999469096,2.238000901,0.013559717,0.203887926,89.954785,-2.153285284,-93.04980244,-0.031129056,4.359681358,3.846329312,-0.029161303,2.154444884,3.913413734,0.033725292,4.885059202,3.272440552,2.238041979,0.347142424,2.206256609,-1.742429567,0.03178537,-2.089571992
58.046263,0.026614116,-0.018772699,-0.00089439,-0.999469096,2.238000901,0.013559717,0.203887926,89.954785,-2.153285284,-93.04980244,-0.031129056,4.359681358,3.846329312,-0.029161303,2.154444884,3.913413734,0.033725292,4.885059202,3.272440552,2.238041979,0.347142424,2.206256609,-1.742429567,0.03178537,-2.089571992
58.066263,0.01011691,0.00252256,0.000753262,-0.999945357,2.246805995,0.01395733,0.204612176,90.08338936,0.289922801,-91.15912531,-0.031129056,4.359681358,3.846329312,-0.029161303,2.154444884,3.913413734,0.033725292,4.885059202,3.272440552,2.246849347,0.355921168,2.206256609,-1.742429567,0.040592738,-2.098350736
58.086263,0.012314622,0.028799753,0.000461266,-0.999509235,2.251074757,0.013911338,0.20484628,90.01221068,3.301065875,-91.41142129,-0.031129056,4.359681358,3.846329312,-0.029161303,2.154444884,3.913413734,0.033725292,4.885059202,3.272440552,2.251117742,0.354075684,2.206256609,-1.742429567,0.044861132,-2.096505252
58.106263,0.042593846,-0.02656229,-0.001599017,-0.99873803,2.231675196,0.013351608,0.203312397,89.94656947,-3.049216768,-94.88268073,-0.031106497,4.359470161,3.846312796,-0.029215468,2.154317257,3.913593128,0.033757672,4.884774596,3.271897638,2.231715136,0.342783593,2.206179044,-1.747581107,0.025536092,-2.0903647
58.126263,0.022219068,-0.025577537,-0.000452148,-0.999425784,2.236510234,0.013529242,0.203789146,90.01335834,-2.931717157,-92.54750279,-0.031106497,4.359470161,3.846312796,-0.029215468,2.154317257,3.913593128,0.033757672,4.884774596,3.271897638,2.236551154,0.346593094,2.206179044,-1.747581107,0.030372111,-2.094174201
58.146263,0.037540167,-0.025308083,-0.001325052,-0.998973714,2.234349988,0.013422544,0.20355493,89.95713094,-2.904059715,-94.30309367,-0.031106497,4.359470161,3.846312796,-0.029215468,2.154317257,3.913593128,0.033757672,4.884774596,3.271897638,2.234390305,0.344192211,2.206179044,-1.747581107,0.028211261,-2.091773318
58.166263,0.02583671,-0.00412944,-0.000578852,-0.99965748,2.24173599,0.01361959,0.204144963,89.94591524,-0.474756069,-92.96080002,-0.031106497,4.359470161,3.846312796,-0.029215468,2.154317257,3.913593128,0.033757672,4.884774596,3.271897638,2.241777362,0.348094265,2.206179044,-1.747581107,0.035598318,-2.095675373
58.186263,0.02583671,-0.00412944,-0.000578852,-0.99965748,2.24173599,0.01361959,0.204144963,89.94591524,-0.474756069,-92.96080002,-0.031106497,4.359470161,3.846312796,-0.029215468,2.154317257,3.913593128,0.033757672,4.884774596,3.271897638,2.241777362,0.348094265,2.206179044,-1.747581107,0.035598318,-2.095675373
58.206263,-0.00083865,-0.037153193,0.000527526,-0.999309091,2.233928296,0.013587614,0.203831675,90.05699511,-4.258471162,-89.90595035,-0.031106497,4.359470161,3.846312796,-0.029215468,2.154317257,3.913593128,0.033757672,4.884774596,3.271897638,2.233969619,0.348490743,2.206179044,-1.747581107,0.027790575,-2.09607185
58.226263,0.030787247,-0.021964965,-0.000996394,-0.99928409,2.237099193,0.013470658,0.203819788,89.96335944,-2.519524759,-93.52856396,-0.03105234,4.35938592,3.846043397,-0.0293921,2.154323856,3.913147606,0.033588781,4.88503004,3.271607142,2.237139749,0.34500147,2.206082881,-1.743080986,0.031056868,-2.088082456
58.246263,0.018065279,-0.010727791,-0.000107892,-0.99977925,2.240474604,0.013655919,0.20411079,90.00984939,-1.229360564,-92.07046595,-0.03105234,4.35938592,3.846043397,-0.0293921,2.154323856,3.913147606,0.033588781,4.88503004,3.271607142,2.240516221,0.349219244,2.206082881,-1.743080986,0.034433339,-2.09230023
58.266263,0.006407822,-0.031155259,0.000525747,-0.999493879,2.234596873,0.013586861,0.203593682,90.08325402,-3.57024671,-90.73723883,-0.03105234,4.35938592,3.846043397,-0.0293921,2.154323856,3.913147606,0.033588781,4.88503004,3.271607142,2.234638178,0.348367165,2.206082881,-1.743080986,0.028555297,-2.091448151
58.286263,0.022556615,-0.025661039,-0.000947692,-0.999415735,2.235605137,0.013564683,0.203753711,89.95773886,-2.942563356,-92.58478429,-0.03105234,4.35938592,3.846043397,-0.0293921,2.154323856,3.913147606,0.033588781,4.88503004,3.271607142,2.235646289,0.347641701,2.206082881,-1.743080986,0.029563408,-2.090722687
58.306263,0.031091993,-0.032667292,-0.001304032,-0.998981699,2.233973386,0.013366632,0.203645669,89.96704034,-3.74690027,-93.56428272,-0.03105234,4.35938592,3.846043397,-0.0293921,2.154323856,3.913147606,0.033588781,4.88503004,3.271607142,2.234013374,0.342816287,2.206082881,-1.743080986,0.027930493,-2.085897274
58.326263,0.031091993,-0.032667292,-0.001304032,-0.998981699,2.233973386,0.013366632,0.203645669,89.96704034,-3.74690027,-93.56428272,-0.031037784,4.359516712,3.845938048,-0.029213436,2.154502623,3.913449112,0.033799457,4.884786306,3.271288411,2.234013374,0.342816287,2.206047342,-1.753680885,0.027966032,-2.096497173
58.346263,0.039020755,-0.011503763,-0.001481214,-0.999171082,2.238072447,0.013477215,0.203900757,89.88181296,-1.323882348,-94.47152023,-0.031037784,4.359516712,3.845938048,-0.029213436,2.154502623,3.913449112,0.033799457,4.884786306,3.271288411,2.238113025,0.345019318,2.206047342,-1.753680885,0.032065683,-2.098700203
58.366263,-0.00015772,0.004412195,0.000500354,-0.999990129,2.24176584,0.013576018,0.204182901,90.0574178,0.505592774,-89.9816731,-0.031037784,4.359516712,3.845938048,-0.029213436,2.154502623,3.913449112,0.033799457,4.884786306,3.271288411,2.241806947,0.346976024,2.206047342,-1.753680885,0.035759605,-2.100656909
58.386263,0.02732569,-0.022313479,-0.000660414,-0.999377296,2.237032506,0.013509495,0.2038005,89.9942336,-2.558261976,-93.13233521,-0.031037784,4.359516712,3.845938048,-0.029213436,2.154502623,3.913449112,0.033799457,4.884786306,3.271288411,2.237073297,0.346006426,2.206047342,-1.753680885,0.031025955,-2.099687312
58.406263,-1.09357E-05,-0.023367192,0.000992856,-0.999726457,2.238296393,0.013680755,0.203952536,90.11383689,-2.677926578,-90.00140729,-0.031037784,4.359516712,3.845938048,-0.029213436,2.154502623,3.913449112,0.033799457,4.884786306,3.271288411,2.238338202,0.3501948,2.206047342,-1.753680885,0.03229086,-2.103875685
58.426263,0.029834286,0.002176201,-0.000851075,-0.999552127,2.24284751,0.013543079,0.204227023,89.89507677,0.246353749,-93.41949965,-0.031037784,4.359516712,3.845938048,-0.029213436,2.154502623,3.913449112,0.033799457,4.884786306,3.271288411,2.242888398,0.345967276,2.206047342,-1.753680885,0.036841056,-2.099648161
58.446263,-0.0388987,0.018503915,0.002900623,-0.999067607,2.240652116,0.01391749,0.204045289,90.41484133,2.105960165,-85.53300496,-0.031003995,4.359592446,3.846232981,-0.029167301,2.154496756,3.913281359,0.033788849,4.88494638,3.271759178,2.240695339,0.355879965,2.206114794,-1.741605099,0.034580545,-2.097485063
58.466263,-0.0388987,0.018503915,0.002900623,-0.999067607,2.240652116,0.01391749,0.204045289,90.41484133,2.105960165,-85.53300496,-0.031003995,4.359592446,3.846232981,-0.029167301,2.154496756,3.913281359,0.033788849,4.88494638,3.271759178,2.240695339,0.355879965,2.206114794,-1.741605099,0.034580545,-2.097485063
58.486263,0.022914225,-0.017568723,-0.000212938,-0.99958303,2.238775279,0.013547799,0.203926303,90.02175423,-2.013361392,-92.62679435,-0.031003995,4.359592446,3.846232981,-0.029167301,2.154496756,3.913281359,0.033788849,4.88494638,3.271759178,2.23881627,0.346717352,2.206114794,-1.741605099,0.032701476,-2.088322451
58.506263,0.023058932,-0.023575716,-0.000493307,-0.999455966,2.236641303,0.013521815,0.20376644,90.00580393,-2.70241363,-92.64346526,-0.031003995,4.359592446,3.846232981,-0.029167301,2.154496756,3.913281359,0.033788849,4.88494638,3.271759178,2.236682177,0.346382543,2.206114794,-1.741605099,0.030567382,-2.087987642
58.526263,0.023058932,-0.023575716,-0.000493307,-0.999455966,2.236641303,0.013521815,0.20376644,90.00580393,-2.70241363,-92.64346526,-0.031003995,4.359592446,3.846232981,-0.029167301,2.154496756,3.913281359,0.033788849,4.88494638,3.271759178,2.236682177,0.346382543,2.206114794,-1.741605099,0.030567382,-2.087987642
58.546263,0.027357776,-0.01898996,-0.000568837,-0.999445151,2.238234782,0.013516493,0.203894486,89.99438115,-2.177188898,-93.13582071,-0.031003995,4.359592446,3.846232981,-0.029167301,2.154496756,3.913281359,0.033788849,4.88494638,3.271759178,2.238275594,0.3459997,2.206114794,-1.741605099,0.0321608,-2.087604799
58.566263,0.027357776,-0.01898996,-0.000568837,-0.999445151,2.238234782,0.013516493,0.203894486,89.99438115,-2.177188898,-93.13582071,-0.030930837,4.35944009,3.846131866,-0.029061405,2.154340844,3.913300942,0.033725478,4.884963707,3.272111549,2.238275594,0.3459997,2.206122021,-1.744735483,0.032153573,-2.090735183
58.586263,0.023037749,-0.014235401,-0.000332036,-0.999633185,2.237072645,0.013560069,0.203623993,89.99954568,-1.631755564,-92.64042645,-0.030930837,4.35944009,3.846131866,-0.029061405,2.154340844,3.913300942,0.033725478,4.884963707,3.272111549,2.237113742,0.347295466,2.206122021,-1.744735483,0.030991721,-2.092030949
58.606263,0.03490513,-0.037073473,-0.001536234,-0.998701572,2.231326876,0.013383618,0.203444887,89.9724008,-4.25283969,-94.00237913,-0.030930837,4.35944009,3.846131866,-0.029061405,2.154340844,3.913300942,0.033725478,4.884963707,3.272111549,2.231367014,0.343659034,2.206122021,-1.744735483,0.025244993,-2.088394517
58.626263,0.027865906,-0.022028923,-0.000695313,-0.999368668,2.236994208,0.013498601,0.203803106,89.99070702,-2.525773188,-93.19418227,-0.030930837,4.35944009,3.846131866,-0.029061405,2.154340844,3.913300942,0.033725478,4.884963707,3.272111549,2.237034935,0.345733336,2.206122021,-1.744735483,0.030912914,-2.090468819
58.646263,0.028419888,-0.019904083,-0.000977647,-0.999397409,2.234989763,0.013542026,0.203422017,89.9528212,-2.283253661,-93.25682479,-0.030765221,4.359535819,3.846282268,-0.028952488,2.154282858,3.913283562,0.033818441,4.885019887,3.272071554,2.235030789,0.347156594,2.206270563,-1.740258779,0.028760226,-2.087415374
58.666263,0.028419888,-0.019904083,-0.000977647,-0.999397409,2.234989763,0.013542026,0.203422017,89.9528212,-2.283253661,-93.25682479,-0.030765221,4.359535819,3.846282268,-0.028952488,2.154282858,3.913283562,0.033818441,4.885019887,3.272071554,2.235030789,0.347156594,2.206270563,-1.740258779,0.028760226,-2.087415374
58.686263,0.03561344,-0.040129942,-0.0015821,-0.998558345,2.22920539,0.013367285,0.203192338,89.9826805,-4.603330502,-94.08446386,-0.030765221,4.359535819,3.846282268,-0.028952488,2.154282858,3.913283562,0.033818441,4.885019887,3.272071554,2.229245468,0.343566305,2.206270563,-1.740258779,0.022974905,-2.083825084
58.706263,0.03561344,-0.040129942,-0.0015821,-0.998558345,2.22920539,0.013367285,0.203192338,89.9826805,-4.603330502,-94.08446386,-0.030765221,4.359535819,3.846282268,-0.028952488,2.154282858,3.913283562,0.033818441,4.885019887,3.272071554,2.229245468,0.343566305,2.206270563,-1.740258779,0.022974905,-2.083825084
58.726263,0.013512068,-0.017340341,0.000216163,-0.999758316,2.239653295,0.013693529,0.204096081,90.05164478,-1.986639858,-91.54954435,-0.030765221,4.359535819,3.846282268,-0.028952488,2.154282858,3.913283562,0.033818441,4.885019887,3.272071554,2.239695157,0.350309409,2.206270563,-1.740258779,0.033424594,-2.090568189
58.746263,0.005336451,-0.027981959,0.000486382,-0.999594065,2.234719574,0.013596442,0.20352981,90.07293818,-3.206570885,-90.61379626,-0.030765221,4.359535819,3.846282268,-0.028952488,2.154282858,3.913283562,0.033818441,4.885019887,3.272071554,2.234760935,0.348593687,2.206270563,-1.740258779,0.028490372,-2.088852466
58.766263,0.013505119,-0.019691123,0.000409112,-0.999714811,2.239863721,0.013581238,0.204104372,90.07740081,-2.255742586,-91.54944378,-0.030598834,4.359400832,3.846282746,-0.028871976,2.154192813,3.913062423,0.033800503,4.885134641,3.272127909,2.239904895,0.347404213,2.206218922,-1.734541443,0.033685973,-2.081945656
58.786263,0.038700217,-0.027073742,-0.002052406,-0.998881922,2.233404108,0.013402878,0.203538651,89.88496953,-3.109581669,-94.43434048,-0.030598834,4.359400832,3.846282746,-0.028871976,2.154192813,3.913062423,0.033800503,4.885134641,3.272127909,2.233444324,0.343833489,2.206218922,-1.734541443,0.027225401,-2.078374932
58.806263,-0.002453375,0.030440046,0.000760204,-0.999533294,2.245226277,0.013706288,0.204369386,90.09580767,3.488485541,-89.71581569,-0.030598834,4.359400832,3.846282746,-0.028871976,2.154192813,3.913062423,0.033800503,4.885134641,3.272127909,2.245268112,0.349765509,2.206218922,-1.734541443,0.03904919,-2.084306952
58.826263,0.014157787,0.011058924,0.00046876,-0.999838506,2.247446627,0.013919708,0.204558232,90.0357744,1.26791866,-91.6221207,-0.030598834,4.359400832,3.846282746,-0.028871976,2.154192813,3.913062423,0.033800503,4.885134641,3.272127909,2.247489733,0.354860622,2.206218922,-1.734541443,0.041270811,-2.089402065
58.846263,0.035178098,-0.01648323,-0.001105624,-0.999244506,2.237518137,0.013469479,0.203793637,89.93981347,-1.892212911,-94.03150161,-0.030598834,4.359400832,3.846282746,-0.028871976,2.154192813,3.913062423,0.033800503,4.885134641,3.272127909,2.237558678,0.344906702,2.206218922,-1.734541443,0.031339756,-2.079448144
58.866263,0.026137447,-0.017567411,-0.000526784,-0.999503848,2.23851975,0.013524592,0.203904613,89.99227686,-2.014070758,-92.99579907,-0.030598834,4.359400832,3.846282746,-0.028871976,2.154192813,3.913062423,0.033800503,4.885134641,3.272127909,2.238560606,0.346162951,2.206218922,-1.734541443,0.032341683,-2.080704394
58.886263,0.024919134,-0.004386445,-9.16035E-05,-0.999679842,2.245691412,0.013795684,0.204536603,90.00203205,-0.502756692,-92.85585447,-0.030348331,4.359424707,3.845858301,-0.028798304,2.154585118,3.913553084,0.033767267,4.884823157,3.27101777,2.245733787,0.351973795,2.205878554,-1.758589306,0.039855232,-2.110563101
58.906263,0.017098623,-0.018714406,6.00917E-05,-0.999678651,2.239848869,0.013590313,0.204095581,90.04358253,-2.144206554,-91.96061221,-0.030348331,4.359424707,3.845858301,-0.028798304,2.154585118,3.913553084,0.033767267,4.884823157,3.27101777,2.239890099,0.347638632,2.205878554,-1.758589306,0.034011544,-2.106227938
58.926263,0.029290584,-0.036932178,-0.001160773,-0.998887746,2.231786473,0.01341272,0.203476752,89.9910699,-4.235160412,-93.35889825,-0.030348331,4.359424707,3.845858301,-0.028798304,2.154585118,3.913553084,0.033767267,4.884823157,3.27101777,2.231826777,0.344335347,2.205878554,-1.758589306,0.025948223,-2.102924654
58.946263,0.022292108,-0.025432654,-0.000956537,-0.9994275,2.235310204,0.013548196,0.203694236,89.95536123,-2.916401599,-92.5543906,-0.030348331,4.359424707,3.845858301,-0.028798304,2.154585118,3.913553084,0.033767267,4.884823157,3.27101777,2.235351261,0.347264979,2.205878554,-1.758589306,0.029472707,-2.105854285
58.966263,0.011765545,-0.019392283,0.000189591,-0.999742705,2.238307441,0.013674702,0.203945463,90.04790124,-2.221921476,-91.34944581,-0.030348331,4.359424707,3.845858301,-0.028798304,2.154585118,3.913553084,0.033767267,4.884823157,3.27101777,2.238349213,0.350038132,2.205878554,-1.758589306,0.032470659,-2.108627438
58.986263,0.005217811,-0.033474578,0.000496971,-0.999425825,2.233560783,0.01358907,0.203501581,90.0771038,-3.836270208,-90.60083736,-0.030289382,4.359508628,3.846383541,-0.028993887,2.154124071,3.913367802,0.033831167,4.884729878,3.270920792,2.233602121,0.348585438,2.206401581,-1.739712878,0.027200539,-2.088298317
59.006263,0.005217811,-0.033474578,0.000496971,-0.999425825,2.233560783,0.01358907,0.203501581,90.0771038,-3.836270208,-90.60083736,-0.030289382,4.359508628,3.846383541,-0.028993887,2.154124071,3.913367802,0.033831167,4.884729878,3.270920792,2.233602121,0.348585438,2.206401581,-1.739712878,0.027200539,-2.088298317
59.026263,0.029240432,-0.022989903,-0.000912065,-0.999307575,2.236375664,0.01347215,0.203756677,89.97256075,-2.636611151,-93.3514405,-0.030289382,4.359508628,3.846383541,-0.028993887,2.154124071,3.913367802,0.033831167,4.884729878,3.270920792,2.236416242,0.345151302,2.206401581,-1.739712878,0.030014661,-2.08486418
59.046263,-0.005895837,-0.021292317,0.001421211,-0.999754898,2.23850395,0.013696471,0.203961994,90.1485685,-2.441020363,-89.32739436,-0.030289382,4.359508628,3.846383541,-0.028993887,2.154124071,3.913367802,0.033831167,4.884729878,3.270920792,2.238545852,0.350564567,2.206401581,-1.739712878,0.03214427,-2.090277446
59.066263,0.020102082,-0.00555887,-0.000469,-0.999782369,2.241869344,0.013667242,0.20419235,89.95907071,-0.637954438,-92.3034921,-0.030289382,4.359508628,3.846383541,-0.028993887,2.154124071,3.913367802,0.033831167,4.884729878,3.270920792,2.241911004,0.349291347,2.206401581,-1.739712878,0.035509423,-2.089004225
59.086263,0.029864891,-0.002473249,-0.000417084,-0.999550798,2.245072927,0.013746611,0.204445507,89.9606908,-0.284714673,-93.42268648,-0.030330574,4.359343355,3.846073416,-0.028989778,2.154401819,3.913638031,0.033839734,4.884747364,3.27156736,2.245115012,0.350818426,2.205976463,-1.755128794,0.039138549,-2.10594722
59.106263,0.027427898,-0.039359312,-0.001152506,-0.99884795,2.231030026,0.013412932,0.203416155,89.99176572,-4.513337375,-93.14551563,-0.030330574,4.359343355,3.846073416,-0.028989778,2.154401819,3.913638031,0.033839734,4.884747364,3.27156736,2.231070345,0.344457546,2.205976463,-1.755128794,0.025093882,-2.09958634
59.126263,0.017593894,0.017143838,0.000174172,-0.999698211,2.248804717,0.013914653,0.20469021,89.98538007,1.964682424,-92.01676291,-0.030330574,4.359343355,3.846073416,-0.028989778,2.154401819,3.913638031,0.033839734,4.884747364,3.27156736,2.248847766,0.354517551,2.205976463,-1.755128794,0.042871303,-2.109646345
59.146263,0.016461447,-0.001186329,-9.30665E-05,-0.999863793,2.243265209,0.013672463,0.204298794,89.99157461,-0.136100441,-91.88641943,-0.030330574,4.359343355,3.846073416,-0.028989778,2.154401819,3.913638031,0.033839734,4.884747364,3.27156736,2.243306875,0.349207353,2.205976463,-1.755128794,0.037330412,-2.104336147
59.166263,0.016461447,-0.001186329,-9.30665E-05,-0.999863793,2.243265209,0.013672463,0.204298794,89.99157461,-0.136100441,-91.88641943,-0.030330574,4.359343355,3.846073416,-0.028989778,2.154401819,3.913638031,0.033839734,4.884747364,3.27156736,2.243306875,0.349207353,2.205976463,-1.755128794,0.037330412,-2.104336147
59.186263,0.025378002,-0.017806423,-0.000197873,-0.999519309,2.238048822,0.013493415,0.203911003,90.02913772,-2.040491687,-92.90939731,-0.030330574,4.359343355,3.846073416,-0.028989778,2.154401819,3.913638031,0.033839734,4.884747364,3.27156736,2.238089498,0.345437668,2.205976463,-1.755128794,0.032113035,-2.100566463
59.206263,0.025378002,-0.017806423,-0.000197873,-0.999519309,2.238048822,0.013493415,0.203911003,90.02913772,-2.040491687,-92.90939731,-0.030239473,4.359272618,3.845827254,-0.029072948,2.154221246,3.91317631,0.033921555,4.884977245,3.27172703,2.238089498,0.345437668,2.206079656,-1.749445585,0.032009842,-2.094883253
59.226263,0.016176043,-0.044922822,-0.000726928,-0.998859223,2.228752552,0.013389269,0.203318258,90.0000661,-5.150183774,-91.8555957,-0.030239473,4.359272618,3.845827254,-0.029072948,2.154221246,3.91317631,0.033921555,4.884977245,3.27172703,2.22879277,0.34420122,2.206079656,-1.749445585,0.022713113,-2.093646806
59.246263,0.03634486,-0.011828839,-0.001441086,-0.999268259,2.238932323,0.013491717,0.203944997,89.88421678,-1.360622963,-94.16465268,-0.030239473,4.359272618,3.845827254,-0.029072948,2.154221246,3.91317631,0.033921555,4.884977245,3.27172703,2.238972973,0.345257909,2.206079656,-1.749445585,0.032893317,-2.094703494
59.266263,0.018671171,-0.006048877,-0.000225648,-0.999807355,2.242225835,0.013647772,0.204252963,89.98708862,-0.693516418,-92.13964404,-0.030239473,4.359272618,3.845827254,-0.029072948,2.154221246,3.91317631,0.033921555,4.884977245,3.27172703,2.242267369,0.348738329,2.206079656,-1.749445585,0.036187713,-2.098183914
59.286263,0.024191678,-0.016540636,-0.000473259,-0.999570381,2.238923547,0.013545982,0.203916858,89.99164059,-1.896261076,-92.77267393,-0.030239473,4.359272618,3.845827254,-0.029072948,2.154221246,3.91317631,0.033921555,4.884977245,3.27172703,2.238964525,0.346647903,2.206079656,-1.749445585,0.032884868,-2.096093488
59.306263,0.027180653,-0.020751548,-0.00070945,-0.99941487,2.236444238,0.013492662,0.203678192,89.98337053,-2.379454467,-93.11538357,-0.030239473,4.359272618,3.845827254,-0.029072948,2.154221246,3.91317631,0.033921555,4.884977245,3.27172703,2.236484939,0.345666221,2.206079656,-1.749445585,0.030405283,-2.095111806
59.326263,0.035407825,-0.018273544,-0.001050175,-0.999205315,2.237571439,0.013463103,0.20386139,89.95386729,-2.097059076,-94.05812215,-0.030177894,4.359324355,3.845790277,-0.028962732,2.154310084,3.913495199,0.034088196,4.885149128,3.272759929,2.237611942,0.344735228,2.206053465,-1.758713297,0.031558477,-2.103448526
59.346263,0.020593263,-0.020199952,-0.000286077,-0.999583812,2.238037222,0.013550997,0.203866875,90.0149119,-2.315085554,-92.36076408,-0.030177894,4.359324355,3.845790277,-0.028962732,2.154310084,3.913495199,0.034088196,4.885149128,3.272759929,2.238078246,0.346913565,2.206053465,-1.758713297,0.032024781,-2.105626863
59.366263,0.012177806,-0.032508142,0.000186484,-0.999397262,2.234556944,0.013574987,0.203611276,90.0668622,-3.725277236,-91.39842063,-0.030177894,4.359324355,3.845790277,-0.028962732,2.154310084,3.913495199,0.034088196,4.885149128,3.272759929,2.234598178,0.348068943,2.206053465,-1.758713297,0.028544713,-2.10678224
59.386263,0.012177806,-0.032508142,0.000186484,-0.999397262,2.234556944,0.013574987,0.203611276,90.0668622,-3.725277236,-91.39842063,-0.030177894,4.359324355,3.845790277,-0.028962732,2.154310084,3.913495199,0.034088196,4.885149128,3.272759929,2.234598178,0.348068943,2.206053465,-1.758713297,0.028544713,-2.10678224
59.406263,0.024660644,-0.021017525,-0.00061033,-0.999474734,2.237564009,0.013523256,0.203847185,89.98948222,-2.409600855,-92.82659202,-0.030285026,4.359583268,3.846037367,-0.028919527,2.154487011,3.913099243,0.034055362,4.885296435,3.272646768,2.237604874,0.346276593,2.206115771,-1.741955034,0.031489103,-2.088231627
59.426263,0.0274988,-0.023467796,-0.000749914,-0.999346044,2.236323846,0.013474575,0.203773924,89.98805935,-2.690804827,-93.15211644,-0.030285026,4.359583268,3.846037367,-0.028919527,2.154487011,3.913099243,0.034055362,4.885296435,3.272646768,2.23636444,0.345221427,2.206115771,-1.741955034,0.030248669,-2.087176461
59.446263,0.003204679,-0.014179456,0.000743718,-0.999894054,2.240640583,0.013735464,0.204176479,90.09045831,-1.624618389,-90.36854942,-0.030285026,4.359583268,3.846037367,-0.028919527,2.154487011,3.913099243,0.034055362,4.885296435,3.272646768,2.240682683,0.351227349,2.206115771,-1.741955034,0.034566911,-2.093182383
59.466263,0.018013016,-0.022570713,-0.000638909,-0.999582756,2.236101226,0.01359341,0.203732499,89.97337887,-2.587532235,-92.0641765,-0.030285026,4.359583268,3.846037367,-0.028919527,2.154487011,3.913099243,0.034055362,4.885296435,3.272646768,2.236142543,0.348300616,2.206115771,-1.741955034,0.030026772,-2.09025565
59.486263,0.023243407,-0.022912998,-0.00042399,-0.999467137,2.236634497,0.013542258,0.203704188,90.01248207,-2.626285873,-92.66472408,-0.030285026,4.359583268,3.846037367,-0.028919527,2.154487011,3.913099243,0.034055362,4.885296435,3.272646768,2.236675494,0.34690727,2.206115771,-1.741955034,0.030559722,-2.088862304
59.506263,0.028104243,-0.024815047,-0.000837633,-0.999296584,2.236869334,0.013486831,0.20389046,89.98397919,-2.845461871,-93.22152882,-0.030285026,4.359583268,3.846037367,-0.028919527,2.154487011,3.913099243,0.034055362,4.885296435,3.272646768,2.236909992,0.345451166,2.206115771,-1.741955034,0.03079422,-2.0874062
59.526263,0.003398348,0.004268633,0.001447408,-0.999984067,2.24898163,0.013944356,0.204808174,90.16420205,0.48971116,-90.38872493,-0.030517854,4.359575411,3.84628587,-0.028920143,2.15414306,3.913120937,0.034085688,4.885150719,3.272419257,2.249024859,0.35524635,2.206444828,-1.735802783,0.042580031,-2.091049133
59.546263,0.003398348,0.004268633,0.001447408,-0.999984067,2.24898163,0.013944356,0.204808174,90.16420205,0.48971116,-90.38872493,-0.030517854,4.359575411,3.84628587,-0.028920143,2.15414306,3.913120937,0.034085688,4.885150719,3.272419257,2.249024859,0.35524635,2.206444828,-1.735802783,0.042580031,-2.091049133
59.566263,0.032119208,-0.021886981,-0.000999846,-0.999243873,2.236078931,0.013480962,0.203670892,89.96603713,-2.51065021,-93.68136324,-0.030517854,4.359575411,3.84628587,-0.028920143,2.15414306,3.913120937,0.034085688,4.885150719,3.272419257,2.236119568,0.345422912,2.206444828,-1.735802783,0.029674739,-2.081225695
59.586263,0.032119208,-0.021886981,-0.000999846,-0.999243873,2.236078931,0.013480962,0.203670892,89.96603713,-2.51065021,-93.68136324,-0.030517854,4.359575411,3.84628587,-0.028920143,2.15414306,3.913120937,0.034085688,4.885150719,3.272419257,2.236119568,0.345422912,2.206444828,-1.735802783,0.029674739,-2.081225695
59.606263,0.060510798,-0.028912397,-0.003133472,-0.997743804,2.227636217,0.013229075,0.202975873,89.84195311,-3.329242266,-96.93661159,-0.030517854,4.359575411,3.84628587,-0.028920143,2.15414306,3.913120937,0.034085688,4.885150719,3.272419257,2.227675498,0.340253613,2.206444828,-1.735802783,0.021230669,-2.076056396
59.626263,0.010036014,-0.006586982,0.00010095,-0.999927937,2.241908355,0.013683866,0.204231812,90.0191442,-0.754663841,-91.1502128,-0.030517854,4.359575411,3.84628587,-0.028920143,2.15414306,3.913120937,0.034085688,4.885150719,3.272419257,2.241950115,0.349710121,2.206444828,-1.735802783,0.035505287,-2.085512904
59.646263,0.030803078,-0.028576786,-0.001542309,-0.999115688,2.233622401,0.013469655,0.203599137,89.92416613,-3.278996274,-93.52960769,-0.030333832,4.359635786,3.84603678,-0.028839989,2.154412828,3.913211009,0.034025322,4.885256884,3.272797019,2.233663014,0.345512745,2.206245832,-1.744771428,0.027417182,-2.090284173
59.666263,0.019756826,-0.031753617,-0.00060652,-0.999300259,2.23321476,0.013573899,0.203547007,90.00244055,-3.639971495,-92.26533325,-0.030333832,4.359635786,3.84603678,-0.028839989,2.154412828,3.913211009,0.034025322,4.885256884,3.272797019,2.233256012,0.348250219,2.206245832,-1.744771428,0.02701018,-2.093021647
59.686263,0.034700411,-0.037198923,-0.001510007,-0.998704081,2.230834578,0.013395787,0.203359027,89.97503783,-4.267106311,-93.97900296,-0.030333832,4.359635786,3.84603678,-0.028839989,2.154412828,3.913211009,0.034025322,4.885256884,3.272797019,2.230874797,0.344047395,2.206245832,-1.744771428,0.024628965,-2.088818823
59.706263,0.013939604,-0.030614149,-4.99781E-05,-0.999434069,2.233829174,0.013540719,0.203477577,90.0432591,-3.508409559,-91.59948671,-0.030333832,4.359635786,3.84603678,-0.028839989,2.154412828,3.913211009,0.034025322,4.885256884,3.272797019,2.233870213,0.347303434,2.206245832,-1.744771428,0.027624381,-2.092074862
59.726263,0.023720862,-0.013598432,-0.0006257,-0.999625936,2.239570415,0.013565606,0.20397967,89.9652774,-1.559576014,-92.71824487,-0.030333832,4.359635786,3.84603678,-0.028839989,2.154412828,3.913211009,0.034025322,4.885256884,3.272797019,2.239611499,0.347049809,2.206245832,-1.744771428,0.033365667,-2.091821237
59.746263,0.035011062,-0.045301097,-0.001541495,-0.998358483,2.227347546,0.013351106,0.203101082,90.00541663,-5.195905312,-94.01716832,-0.030332103,4.359296811,3.84587489,-0.028868808,2.154270021,3.913397801,0.034006533,4.884941714,3.272122642,2.22738756,0.343436692,2.2060604,-1.753978326,0.02132716,-2.097415018
59.766263,0.01427819,-0.025839319,-0.000459902,-0.999564031,2.236303968,0.013587809,0.203839769,89.98958545,-2.961748253,-91.63649308,-0.030332103,4.359296811,3.84587489,-0.028868808,2.154270021,3.913397801,0.034006533,4.884941714,3.272122642,2.236345247,0.348125536,2.2060604,-1.753978326,0.030284847,-2.102103862
59.786263,0.01427819,-0.025839319,-0.000459902,-0.999564031,2.236303968,0.013587809,0.203839769,89.98958545,-2.961748253,-91.63649308,-0.030332103,4.359296811,3.84587489,-0.028868808,2.154270021,3.913397801,0.034006533,4.884941714,3.272122642,2.236345247,0.348125536,2.2060604,-1.753978326,0.030284847,-2.102103862
59.806263,0.039177244,-0.024148908,-0.001492798,-0.99893931,2.2343252,0.013415333,0.203545962,89.93745988,-2.772108999,-94.49033309,-0.030332103,4.359296811,3.84587489,-0.028868808,2.154270021,3.913397801,0.034006533,4.884941714,3.272122642,2.234365474,0.344011115,2.2060604,-1.753978326,0.028305074,-2.097989441
59.826263,0.03390768,-0.03738012,-0.001488843,-0.998724576,2.23079065,0.013393396,0.203373446,89.97477989,-4.287769039,-93.88805799,-0.030332103,4.359296811,3.84587489,-0.028868808,2.154270021,3.913397801,0.034006533,4.884941714,3.272122642,2.230830855,0.343992757,2.2060604,-1.753978326,0.024770456,-2.097971083
59.846263,0.005418504,-0.01900807,0.000630071,-0.999804449,2.239017152,0.013734664,0.204031832,90.0840498,-2.177871609,-90.62262777,-0.030536185,4.359394205,3.846113046,-0.02880553,2.154153699,3.913116865,0.033958627,4.884988566,3.271842812,2.239059278,0.351461526,2.20625819,-1.740334145,0.032801087,-2.091795671
59.866263,0.024846957,0.004166879,-0.00031491,-0.999682533,2.246608451,0.013865617,0.20457007,89.95205965,0.476446415,-92.84776874,-0.030536185,4.359394205,3.846113046,-0.02880553,2.154153699,3.913116865,0.033958627,4.884988566,3.271842812,2.246651238,0.353613583,2.20625819,-1.740334145,0.040393048,-2.093947728
59.886263,0.024846957,0.004166879,-0.00031491,-0.999682533,2.246608451,0.013865617,0.20457007,89.95205965,0.476446415,-92.84776874,-0.030536185,4.359394205,3.846113046,-0.02880553,2.154153699,3.913116865,0.033958627,4.884988566,3.271842812,2.246651238,0.353613583,2.20625819,-1.740334145,0.040393048,-2.093947728
59.906263,0.00538705,-0.018502089,0.000678347,-0.999814079,2.238867078,0.013726631,0.204008947,90.08920095,-2.119853921,-90.61906962,-0.030536185,4.359394205,3.846113046,-0.02880553,2.154153699,3.913116865,0.033958627,4.884988566,3.271842812,2.238909157,0.351279526,2.20625819,-1.740334145,0.032650967,-2.091613671
59.926263,0.022156371,-0.015762529,-0.000622844,-0.999630057,2.238566713,0.013593511,0.203938486,89.96865816,-1.807465714,-92.53896247,-0.030536185,4.359394205,3.846113046,-0.02880553,2.154153699,3.913116865,0.033958627,4.884988566,3.271842812,2.238607986,0.347919599,2.20625819,-1.740334145,0.032349795,-2.088253744
59.946263,0.012779406,-0.00320578,3.63946E-05,-0.9999132,2.239885296,0.013668962,0.203753868,90.00886492,-0.367272699,-91.46448784,-0.030536185,4.359394205,3.846113046,-0.02880553,2.154153699,3.913116865,0.033958627,4.884988566,3.271842812,2.239927003,0.349644743,2.20625819,-1.740334145,0.033668813,-2.089978888
59.966263,0.016517151,-0.040596153,-0.000501527,-0.99903898,2.231322281,0.013464283,0.203462374,90.01948609,-4.653569799,-91.89516591,-0.03033107,4.359313308,3.8458961,-0.028846624,2.154417182,3.9134189,0.033936592,4.88474999,3.271094829,2.231362903,0.345730985,2.205929794,-1.754079314,0.02543311,-2.099810299
59.986263,0.031234701,-0.018026034,-0.001209546,-0.999348784,2.237486193,0.01351616,0.203810239,89.92595761,-2.069065075,-93.57906282,-0.03033107,4.359313308,3.8458961,-0.028846624,2.154417182,3.9134189,0.033936592,4.88474999,3.271094829,2.237527017,0.346106937,2.205929794,-1.754079314,0.031597223,-2.100186251
60.006263,0.02781789,-0.038056921,-0.00120727,-0.99888757,2.231109441,0.013423467,0.203399548,89.98307573,-4.364217882,-93.1897759,-0.03033107,4.359313308,3.8458961,-0.028846624,2.154417182,3.9134189,0.033936592,4.88474999,3.271094829,2.231149822,0.344715815,2.205929794,-1.754079314,0.025220029,-2.098795129
60.026263,0.02781789,-0.038056921,-0.00120727,-0.99888757,2.231109441,0.013423467,0.203399548,89.98307573,-4.364217882,-93.1897759,-0.03033107,4.359313308,3.8458961,-0.028846624,2.154417182,3.9134189,0.033936592,4.88474999,3.271094829,2.231149822,0.344715815,2.205929794,-1.754079314,0.025220029,-2.098795129
60.046263,-0.005005244,-0.025096693,0.001025586,-0.999671972,2.236998325,0.013689785,0.203853465,90.10322065,-2.876722544,-89.42884967,-0.03033107,4.359313308,3.8458961,-0.028846624,2.154417182,3.9134189,0.033936592,4.88474999,3.271094829,2.237040213,0.35062929,2.205929794,-1.754079314,0.03111042,-2.104708604
60.066263,0.024382592,-0.034217418,-0.000716339,-0.999116682,2.232610608,0.013458071,0.203454798,90.0136228,-3.922628799,-92.796421,-0.030268004,4.35919965,3.845689722,-0.029060753,2.153918402,3.913327774,0.033871602,4.884751347,3.271069017,2.23265117,0.345372055,2.206318265,-1.756764775,0.026332905,-2.10213683
60.086263,0.024382592,-0.034217418,-0.000716339,-0.999116682,2.232610608,0.013458071,0.203454798,90.0136228,-3.922628799,-92.796421,-0.030268004,4.35919965,3.845689722,-0.029060753,2.153918402,3.913327774,0.033871602,4.884751347,3.271069017,2.23265117,0.345372055,2.206318265,-1.756764775,0.026332905,-2.10213683
60.106263,0.016018246,-0.035221111,-0.000204633,-0.999251143,2.233840175,0.013514932,0.203648825,90.04132114,-4.036734019,-91.83823034,-0.030268004,4.35919965,3.845689722,-0.029060753,2.153918402,3.913327774,0.033871602,4.884751347,3.271069017,2.233881058,0.34664034,2.206318265,-1.756764775,0.027562793,-2.103405115
60.126263,0.033504177,-0.0390313,-0.001395841,-0.998675162,2.230138466,0.013380308,0.203293053,89.99008273,-4.476644376,-93.84256015,-0.030268004,4.35919965,3.845689722,-0.029060753,2.153918402,3.913327774,0.033871602,4.884751347,3.271069017,2.230178605,0.343757115,2.206318265,-1.756764775,0.02386034,-2.10052189
60.146263,0.028078355,-0.012248773,-0.000946791,-0.999530228,2.238740921,0.013562966,0.203913129,89.93094686,-1.40613408,-93.21736098,-0.030268004,4.35919965,3.845689722,-0.029060753,2.153918402,3.913327774,0.033871602,4.884751347,3.271069017,2.238782005,0.347110817,2.206318265,-1.756764775,0.03246374,-2.103875592
60.166263,0.008251189,-0.032638326,-2.14827E-05,-0.999433168,2.234136743,0.01364939,0.203697611,90.02846037,-3.740633698,-90.94696078,-0.030344711,4.359386601,3.846088127,-0.028826032,2.154171486,3.913350361,0.033823875,4.884748663,3.271129175,2.234178437,0.350042447,2.206240673,-1.747062055,0.027937764,-2.097104501
60.186263,0.033396744,0.018068608,-0.000892351,-0.999278433,2.247049811,0.013759077,0.204497655,89.82855785,2.066048675,-93.83141488,-0.030344711,4.359386601,3.846088127,-0.028826032,2.154171486,3.913350361,0.033823875,4.884748663,3.271129175,2.247091936,0.350827635,2.206240673,-1.747062055,0.040851262,-2.09788969
60.206263,0.018710337,-0.016534179,-6.11386E-05,-0.999688222,2.240648766,0.01357402,0.20416665,90.02846183,-1.89456293,-92.14493563,-0.030344711,4.359386601,3.846088127,-0.028826032,2.154171486,3.913350361,0.033823875,4.884748663,3.271129175,2.240689882,0.347097927,2.206240673,-1.747062055,0.034449209,-2.094159982
60.226263,0.018710337,-0.016534179,-6.11386E-05,-0.999688222,2.240648766,0.01357402,0.20416665,90.02846183,-1.89456293,-92.14493563,-0.030344711,4.359386601,3.846088127,-0.028826032,2.154171486,3.913350361,0.033823875,4.884748663,3.271129175,2.240689882,0.347097927,2.206240673,-1.747062055,0.034449209,-2.094159982
60.246263,0.043205732,-0.035699183,-0.002162313,-0.99842584,2.228692413,0.013307703,0.203102072,89.92917311,-4.098585606,-94.95319191,-0.030344711,4.359386601,3.846088127,-0.028826032,2.154171486,3.913350361,0.033823875,4.884748663,3.271129175,2.228732143,0.342113686,2.206240673,-1.747062055,0.02249147,-2.08917574
60.266263,0.025894377,-0.008098342,-0.000751356,-0.999631599,2.240457304,0.01360494,0.204056253,89.93795455,-0.929930044,-92.9672034,-0.030344711,4.359386601,3.846088127,-0.028826032,2.154171486,3.913350361,0.033823875,4.884748663,3.271129175,2.240498611,0.347918274,2.206240673,-1.747062055,0.034257937,-2.094980328
60.286263,0.01885688,-0.013159407,-0.000178866,-0.999735573,2.239952082,0.013641858,0.204044985,90.00794698,-1.508118913,-92.16125918,-0.030401034,4.359623205,3.846068513,-0.028808582,2.154447869,3.913263017,0.034008484,4.884953348,3.271462163,2.239993623,0.348941053,2.206198849,-1.745335403,0.033794774,-2.094276456
60.306263,0.025679157,-0.01025436,-0.000779944,-0.999617337,2.240053482,0.013580426,0.204055024,89.94082136,-1.176991283,-92.94248594,-0.030401034,4.359623205,3.846068513,-0.028808582,2.154447869,3.913263017,0.034008484,4.884953348,3.271462163,2.240094647,0.347354013,2.206198849,-1.745335403,0.033895798,-2.092689416
60.326263,0.035116199,-0.040749045,-0.001515122,-0.998550986,2.228968112,0.013370453,0.203185691,89.99057506,-4.674009621,-94.0278146,-0.030401034,4.359623205,3.846068513,-0.028808582,2.154447869,3.913263017,0.034008484,4.884953348,3.271462163,2.229008213,0.343684306,2.206198849,-1.745335403,0.022809364,-2.089019709
60.346263,0.036579277,-0.040407935,-0.001673321,-0.998512071,2.228859925,0.01333865,0.203200939,89.97784134,-4.635588154,-94.19514928,-0.030401034,4.359623205,3.846068513,-0.028808582,2.154447869,3.913263017,0.034008484,4.884953348,3.271462163,2.228899837,0.342883473,2.206198849,-1.745335403,0.022700988,-2.088218877
60.366263,0.015632889,-0.040747997,-0.000373733,-0.999047083,2.231699865,0.013483393,0.203498342,90.0303107,-4.670768034,-91.79419562,-0.030401034,4.359623205,3.846068513,-0.028808582,2.154447869,3.913263017,0.034008484,4.884953348,3.271462163,2.231740596,0.346163083,2.206198849,-1.745335403,0.025541747,-2.091498486
60.386263,0.037304271,0.00221139,-0.000883533,-0.999301116,2.244572763,0.013693242,0.204361337,89.88937105,0.249453473,-94.27599957,-0.030401034,4.359623205,3.846068513,-0.028808582,2.154447869,3.913263017,0.034008484,4.884953348,3.271462163,2.244614531,0.349534341,2.206198849,-1.745335403,0.038415681,-2.094869744
60.406263,-0.013740057,0.039951397,0.002107995,-0.999104926,2.246824317,0.013785011,0.204451015,90.3052196,4.575537842,-88.4120006,-0.030463713,4.359461018,3.846259641,-0.028636014,2.154171982,3.913314881,0.033988969,4.885072113,3.272728575,2.246866604,0.351524168,2.20630826,-1.741630592,0.040558344,-2.09315476
60.426263,-0.013740057,0.039951397,0.002107995,-0.999104926,2.246824317,0.013785011,0.204451015,90.3052196,4.575537842,-88.4120006,-0.030463713,4.359461018,3.846259641,-0.028636014,2.154171982,3.913314881,0.033988969,4.885072113,3.272728575,2.246866604,0.351524168,2.20630826,-1.741630592,0.040558344,-2.09315476
60.446263,0.037369499,-0.035316552,-0.001743022,-0.998675735,2.230524941,0.013344053,0.203290783,89.95164153,-4.052461442,-94.28419695,-0.030463713,4.359461018,3.846259641,-0.028636014,2.154171982,3.913314881,0.033988969,4.885072113,3.272728575,2.230564856,0.342766309,2.20630826,-1.741630592,0.024256596,-2.084396901
60.466263,0.029928312,-0.038436182,-0.001128949,-0.998812135,2.231141682,0.013396636,0.203404616,90.00261153,-4.407447328,-93.43268408,-0.030463713,4.359461018,3.846259641,-0.028636014,2.154171982,3.913314881,0.033988969,4.885072113,3.272728575,2.231181901,0.344021832,2.20630826,-1.741630592,0.024873641,-2.085652425
60.486263,-0.002814439,0.031291093,0.000721077,-0.999506091,2.244506832,0.013698465,0.204271799,90.09286206,3.58603235,-89.67442352,-0.030463713,4.359461018,3.846259641,-0.028636014,2.154171982,3.913314881,0.033988969,4.885072113,3.272728575,2.244548633,0.349677925,2.20630826,-1.741630592,0.038240373,-2.091308517
60.506263,0.014570191,-0.010734548,0.000106335,-0.99983622,2.240350227,0.013704723,0.204062345,90.03011265,-1.229804053,-91.67009941,-0.030406149,4.359314595,3.845801676,-0.029007932,2.154295681,3.913077369,0.034024779,4.885288086,3.272728176,2.240392144,0.350486708,2.206044975,-1.747566815,0.034347169,-2.098053523
60.526263,0.032128533,-0.035059198,-0.001339534,-0.998867767,2.231727379,0.013397688,0.203420159,89.97569068,-4.021171476,-93.68370815,-0.030406149,4.359314595,3.845801676,-0.029007932,2.154295681,3.913077369,0.034024779,4.885288086,3.272728176,2.231767594,0.343958561,2.206044975,-1.747566815,0.025722619,-2.091525376
60.546263,0.030545726,-0.020671875,-0.000910751,-0.99931917,2.237209369,0.013475996,0.203845372,89.9680367,-2.37107427,-93.50091532,-0.030406149,4.359314595,3.845801676,-0.029007932,2.154295681,3.913077369,0.034024779,4.885288086,3.272728176,2.237249955,0.345121194,2.206044975,-1.747566815,0.031204981,-2.092688008
60.566263,0.021603184,-0.016647115,-0.000300852,-0.999627974,2.240072728,0.013548848,0.204121188,90.00675212,-1.908006564,-92.47619087,-0.030406149,4.359314595,3.845801676,-0.029007932,2.154295681,3.913077369,0.034024779,4.885288086,3.272728176,2.240113702,0.346543377,2.206044975,-1.747566815,0.034068727,-2.094110192
60.586263,0.007724429,-0.01833516,0.000625591,-0.999801862,2.240416008,0.013658573,0.204157763,90.08796187,-2.100555081,-90.88692473,-0.030406149,4.359314595,3.845801676,-0.029007932,2.154295681,3.913077369,0.034024779,4.885288086,3.272728176,2.240457642,0.349296235,2.206044975,-1.747566815,0.034412667,-2.09686305
60.606263,0.026630834,-0.015521908,-0.000531712,-0.99952468,2.238847908,0.013514061,0.203924406,89.9864604,-1.779742948,-93.0521875,-0.030406149,4.359314595,3.845801676,-0.029007932,2.154295681,3.913077369,0.034024779,4.885288086,3.272728176,2.238888694,0.34584271,2.206044975,-1.747566815,0.032843719,-2.093409525
60.626263,0.018084889,-0.01334989,-0.0003156,-0.999747277,2.23980988,0.013598758,0.203987519,89.99150704,-1.530233998,-92.07255997,-0.030476318,4.359119957,3.845487711,-0.028944874,2.154413446,3.913532692,0.034098443,4.88505093,3.272998566,2.239851161,0.347860727,2.205756314,-1.767787686,0.034094847,-2.115648413
60.646263,0.018084889,-0.01334989,-0.0003156,-0.999747277,2.23980988,0.013598758,0.203987519,89.99150704,-1.530233998,-92.07255997,-0.030476318,4.359119957,3.845487711,-0.028944874,2.154413446,3.913532692,0.034098443,4.88505093,3.272998566,2.239851161,0.347860727,2.205756314,-1.767787686,0.034094847,-2.115648413
60.666263,0.039185158,-0.042899682,-0.002021443,-0.998308597,2.227458426,0.013328106,0.203069171,89.96124042,-4.922757774,-94.49392217,-0.030476318,4.359119957,3.845487711,-0.028944874,2.154413446,3.913532692,0.034098443,4.88505093,3.272998566,2.227498301,0.342828008,2.205756314,-1.767787686,0.021741986,-2.110615694
60.686263,0.029111158,-0.022225971,-0.000883328,-0.999328658,2.236666831,0.013479512,0.203768776,89.97296268,-2.548986197,-93.33658874,-0.030476318,4.359119957,3.845487711,-0.028944874,2.154413446,3.913532692,0.034098443,4.88505093,3.272998566,2.236707449,0.345294956,2.205756314,-1.767787686,0.030951134,-2.113082642
60.706263,0.009861653,-0.01331224,0.000200423,-0.999862737,2.240609265,0.013687257,0.20412335,90.03802081,-1.52521457,-91.13068679,-0.030476318,4.359119957,3.845487711,-0.028944874,2.154413446,3.913532692,0.034098443,4.88505093,3.272998566,2.240651071,0.349999581,2.205756314,-1.767787686,0.034894756,-2.117787267
60.726263,0.033360991,-0.03498303,-0.001245752,-0.998830156,2.231987706,0.013404761,0.203456811,89.99112881,-4.012110797,-93.82563241,-0.030566749,4.359371408,3.8457997,-0.029028428,2.154261072,3.913060114,0.033959385,4.885373034,3.273043847,2.232027958,0.344100008,2.206135888,-1.747097771,0.02589207,-2.091197779
60.746263,-0.001960181,-0.030005396,0.000786741,-0.999547505,2.235034864,0.013667622,0.203624828,90.08352376,-3.439050568,-89.77778579,-0.030566749,4.359371408,3.8457997,-0.029028428,2.154261072,3.913060114,0.033959385,4.885373034,3.273043847,2.235076654,0.350369165,2.206135888,-1.747097771,0.028940766,-2.097466937
60.766263,-0.001960181,-0.030005396,0.000786741,-0.999547505,2.235034864,0.013667622,0.203624828,90.08352376,-3.439050568,-89.77778579,-0.030566749,4.359371408,3.8457997,-0.029028428,2.154261072,3.913060114,0.033959385,4.885373034,3.273043847,2.235076654,0.350369165,2.206135888,-1.747097771,0.028940766,-2.097466937
60.786263,-0.011945727,0.055366283,0.001884889,-0.998392869,2.246037289,0.013858196,0.204298439,90.29323226,6.344690966,-88.61273011,-0.030566749,4.359371408,3.8457997,-0.029028428,2.154261072,3.913060114,0.033959385,4.885373034,3.273043847,2.246080042,0.353514191,2.206135888,-1.747097771,0.039944154,-2.100611962
60.806263,0.015636545,-0.010313473,-8.00948E-05,-0.999824547,2.241124345,0.013667402,0.204144964,90.00930525,-1.181856939,-91.79208045,-0.030566749,4.359371408,3.8457997,-0.029028428,2.154261072,3.913060114,0.033959385,4.885373034,3.273043847,2.24116602,0.349411552,2.206135888,-1.747097771,0.035030132,-2.096509323
60.826263,0.025110989,-0.006878319,-0.000780729,-0.999660701,2.240511308,0.013602263,0.204054197,89.93035115,-0.790201421,-92.87739858,-0.030590079,4.359266853,3.845706078,-0.028925882,2.154378588,3.913239678,0.034039732,4.88530913,3.273122451,2.240552598,0.347841437,2.205922267,-1.754365955,0.034630331,-2.102207393
60.846263,0.037209622,-0.022615111,-0.001324211,-0.999050673,2.235056049,0.013444082,0.203595013,89.94477272,-2.595574624,-94.26473732,-0.030590079,4.359266853,3.845706078,-0.028925882,2.154378588,3.913239678,0.034039732,4.88530913,3.273122451,2.235096482,0.344635586,2.205922267,-1.754365955,0.029174215,-2.099001541
60.866263,-0.003994784,0.059158076,0.001394012,-0.998239661,2.246052647,0.013790697,0.204261622,90.18785643,6.78227256,-89.53029514,-0.030590079,4.359266853,3.845706078,-0.028925882,2.154378588,3.913239678,0.034039732,4.88530913,3.273122451,2.246094984,0.351789974,2.205922267,-1.754365955,0.040172717,-2.106155929
60.886263,0.027996409,-0.024173081,-0.000714841,-0.999315442,2.236478672,0.013507685,0.20376239,89.99568719,-2.771508776,-93.20940603,-0.030590079,4.359266853,3.845706078,-0.028925882,2.154378588,3.913239678,0.034039732,4.88530913,3.273122451,2.236519462,0.346045748,2.205922267,-1.754365955,0.030597196,-2.100411703
60.906263,0.024267211,-0.009451811,-0.000620511,-0.999660633,2.240777691,0.013573757,0.204076708,89.95519455,-1.084520428,-92.78079123,-0.030590079,4.359266853,3.845706078,-0.028925882,2.154378588,3.913239678,0.034039732,4.88530913,3.273122451,2.240818803,0.347071229,2.205922267,-1.754365955,0.034896536,-2.101437184
60.926263,0.041643219,-0.036989409,-0.001947417,-0.998445709,2.229187314,0.013310659,0.203182957,89.95357393,-4.245262195,-94.77490073,-0.03073804,4.359345003,3.8457967,-0.028958703,2.154254055,3.913270114,0.034121581,4.885038625,3.272384097,2.229227054,0.342113708,2.206123013,-1.752642438,0.023104041,-2.094756146
60.946263,-0.015310905,0.035489561,0.002171264,-0.999250395,2.247555275,0.01379227,0.204631071,90.31167344,4.063351425,-88.23326427,-0.03073804,4.359345003,3.8457967,-0.028958703,2.154254055,3.913270114,0.034121581,4.885038625,3.272384097,2.247597593,0.351594882,2.206123013,-1.752642438,0.04147458,-2.10423732
60.966263,0.027694548,-0.01116989,-0.000923877,-0.999553596,2.239729562,0.013571924,0.204030903,89.92960945,-1.282442822,-93.17337886,-0.03073804,4.359345003,3.8457967,-0.028958703,2.154254055,3.913270114,0.034121581,4.885038625,3.272384097,2.239770682,0.34718676,2.206123013,-1.752642438,0.033647669,-2.099829199
60.986263,0.019358775,-0.022570827,-0.000737623,-0.999557528,2.236711711,0.013595844,0.203824789,89.96554693,-2.587797911,-92.21827863,-0.03073804,4.359345003,3.8457967,-0.028958703,2.154254055,3.913270114,0.034121581,4.885038625,3.272384097,2.236753032,0.348267892,2.206123013,-1.752642438,0.030630019,-2.100910331
61.006263,0.021892706,-0.008883397,-0.000391094,-0.999720782,2.239118688,0.01358416,0.20378902,89.97747888,-1.018712908,-92.50881873,-0.03073804,4.359345003,3.8457967,-0.028958703,2.154254055,3.913270114,0.034121581,4.885038625,3.272384097,2.239159893,0.347594569,2.206123013,-1.752642438,0.033036881,-2.100237008
61.026263,0.007987821,-0.028107096,0.000370762,-0.999572933,2.235614482,0.013605788,0.203639778,90.0683034,-3.220817038,-90.91762878,-0.03073804,4.359345003,3.8457967,-0.028958703,2.154254055,3.913270114,0.034121581,4.885038625,3.272384097,2.235655884,0.348693662,2.206123013,-1.752642438,0.029532871,-2.1013361
61.046263,0.007987821,-0.028107096,0.000370762,-0.999572933,2.235614482,0.013605788,0.203639778,90.0683034,-3.220817038,-90.91762878,-0.030644826,4.359087324,3.845452363,-0.028870001,2.154338902,3.913395696,0.034016967,4.885059861,3.272334269,2.235655884,0.348693662,2.205795072,-1.765115045,0.029860812,-2.113808707
61.066263,-0.001105476,-0.026873025,0.001117258,-0.999637619,2.237228626,0.013683595,0.203879165,90.12475799,-3.079930465,-89.87662987,-0.030644826,4.359087324,3.845452363,-0.028870001,2.154338902,3.913395696,0.034016967,4.885059861,3.272334269,2.237270473,0.350434659,2.205795072,-1.765115045,0.031475401,-2.115549704
61.086263,0.044388704,-0.034698358,-0.001911531,-0.998409742,2.228999702,0.013291312,0.20315122,89.9576965,-3.982745632,-95.08984889,-0.030644826,4.359087324,3.845452363,-0.028870001,2.154338902,3.913395696,0.034016967,4.885059861,3.272334269,2.229039329,0.341645208,2.205795072,-1.765115045,0.023244258,-2.106760253
61.106263,0.004999685,-0.032431601,0.000333509,-0.999461397,2.233289019,0.013541873,0.203589138,90.0568972,-3.716801222,-90.57507175,-0.030644826,4.359087324,3.845452363,-0.028870001,2.154338902,3.913395696,0.034016967,4.885059861,3.272334269,2.233330075,0.347417041,2.205795072,-1.765115045,0.027535004,-2.112532086
61.126263,0.01996087,-0.009793438,-0.000466951,-0.999752687,2.241242946,0.013652702,0.20418203,89.96889957,-1.1231078,-92.28730422,-0.030644826,4.359087324,3.845452363,-0.028870001,2.154338902,3.913395696,0.034016967,4.885059861,3.272334269,2.241284529,0.34901728,2.205795072,-1.765115045,0.035489457,-2.114132325
61.146263,0.029685297,-0.016519047,-0.000654339,-0.999422571,2.238439443,0.013493586,0.203876191,89.98124387,-1.894421268,-93.40233928,-0.030632476,4.358928771,3.845221224,-0.028860286,2.154248105,3.913254723,0.034000558,4.885100788,3.272207416,2.238480113,0.345381772,2.205730127,-1.767510266,0.032749986,-2.112892038
61.166263,0.031525178,-0.024297333,-0.001540803,-0.999206399,2.234346192,0.013489267,0.203576162,89.91124649,-2.788726784,-93.61202925,-0.030632476,4.358928771,3.845221224,-0.028860286,2.154248105,3.913254723,0.034000558,4.885100788,3.272207416,2.234386911,0.345903722,2.205730127,-1.767510266,0.028656784,-2.113413988
61.186263,0.031525178,-0.024297333,-0.001540803,-0.999206399,2.234346192,0.013489267,0.203576162,89.91124649,-2.788726784,-93.61202925,-0.030632476,4.358928771,3.845221224,-0.028860286,2.154248105,3.913254723,0.034000558,4.885100788,3.272207416,2.234386911,0.345903722,2.205730127,-1.767510266,0.028656784,-2.113413988
61.206263,0.037884831,-0.039206893,-0.001781503,-0.998511084,2.229038659,0.013359232,0.203166928,89.966263,-4.4984438,-94.34434575,-0.030632476,4.358928771,3.845221224,-0.028860286,2.154248105,3.913254723,0.034000558,4.885100788,3.272207416,2.229078691,0.343384995,2.205730127,-1.767510266,0.023348564,-2.110895261
